File Created
1,N,11948.79621,W,0.026,,070819,,,D*64
$GPRMC,200034.00,A,3932.36480,N,11948.79635,W,0.010,,070819,,,D*6D
$GPRMC,200035.00,A,3932.36487,N,11948.79648,W,0.031,,070819,,,D*62
$GPRMC,200036.00,A,3932.36480,N,11948.79663,W,0.114,,070819,,,D*69
$GPRMC,200037.00,A,3932.36480,N,11948.79675,W,0.072,,070819,,,D*6E
$GPRMC,200038.00,A,3932.36478,N,11948.79687,W,0.041,,070819,,,D*6B
$GPRMC,200039.00,A,3932.36476,N,11948.79695,W,0.035,,070819,,,D*64
$GPRMC,200040.00,A,3932.36477,N,11948.79705,W,0.044,,070819,,,D*65
$GPRMC,200041.00,A,3932.36473,N,11948.79710,W,0.071,,070819,,,D*62
$GPRMC,200042.00,A,3932.36470,N,11948.79712,W,0.082,,070819,,,D*6C
$GPRMC,200043.00,A,3932.36468,N,11948.79712,W,0.094,,070819,,,D*63
$GPRMC,200044.00,A,3932.36469,N,11948.79711,W,0.015,,070819,,,D*6F
$GPRMC,200045.00,A,3932.36467,N,11948.79712,W,0.021,,070819,,,D*64
$GPRMC,200046.00,A,3932.36465,N,11948.79715,W,0.049,,070819,,,D*6C
$GPRMC,200047.00,A,3932.36466,N,11948.79715,W,0.116,,070819,,,D*65
$GPRMC,200048.00,A,3932.36467,N,11948.79714,W,0.025,,070819,,,D*6B
$GPRMC,200049.00,A,3932.36468,N,11948.79714,W,0.078,,070819,,,D*6D
$GPRMC,200050.00,A,3932.36468,N,11948.79717,W,0.124,,070819,,,D*6E
$GPRMC,200051.00,A,3932.36469,N,11948.79720,W,0.154,,070819,,,D*6D
$GPRMC,200052.00,A,3932.36470,N,11948.79721,W,0.058,,070819,,,D*6A
$GPRMC,200053.00,A,3932.36469,N,11948.79722,W,0.052,,070819,,,D*6A
$GPRMC,200054.00,A,3932.36468,N,11948.79724,W,0.089,,070819,,,D*6C
$GPRMC,200055.00,A,3932.36468,N,11948.79731,W,0.274,,070819,,,D*69
$GPRMC,200056.00,A,3932.36466,N,11948.79727,W,0.368,,070819,,,D*6F
$GPRMC,200057.00,A,3932.36469,N,11948.79730,W,0.125,,070819,,,D*6C
$GPRMC,200058.00,A,3932.36474,N,11948.79736,W,0.039,,070819,,,D*65
$GPRMC,200059.00,A,3932.36476,N,11948.79737,W,0.063,,070819,,,D*68
$GPRMC,200100.00,A,3932.36482,N,11948.79736,W,0.069,,070819,,,D*65
$GPRMC,200101.00,A,3932.36488,N,11948.79736,W,0.016,,070819,,,D*66
$GPRMC,200102.00,A,3932.36492,N,11948.79734,W,0.016,,070819,,,D*6C
$GPRMC,200103.00,A,3932.36495,N,11948.79733,W,0.088,,070819,,,D*6A
$GPRMC,200104.00,A,3932.36492,N,11948.79735,W,0.130,,070819,,,D*6E
$GPRMC,200105.00,A,3932.36504,N,11948.79735,W,0.105,,070819,,,D*67
$GPRMC,200106.00,A,3932.36521,N,11948.79736,W,0.031,,070819,,,D*66
$GPRMC,200107.00,A,3932.36524,N,11948.79731,W,0.080,,070819,,,D*6F
$GPRMC,200108.00,A,3932.36529,N,11948.79727,W,0.097,,070819,,,D*6C
$GPRMC,200107.00,A,3932.36534,N,11948.79725,W,0.050,,070819,,,D*66
$GPRMC,200108.00,A,3932.36535,N,11948.79727,W,0.047,,070819,,,D*6C
$GPRMC,200109.00,A,3932.36538,N,11948.79729,W,0.011,,070819,,,D*6D
$GPRMC,200110.00,A,3932.36540,N,11948.79734,W,0.053,,070819,,,D*60
$GPRMC,200111.00,A,3932.36545,N,11948.79739,W,0.058,,070819,,,D*62
$GPRMC,200112.00,A,3932.36547,N,11948.79733,W,0.402,53.32,070819,,,D*4B
$GPRMC,200113.00,A,3932.36552,N,11948.79732,W,0.072,,070819,,,D*65
$GPRMC,200114.00,A,3932.36558,N,11948.79735,W,0.081,,070819,,,D*63
$GPRMC,200115.00,A,3932.36557,N,11948.79735,W,0.097,,070819,,,D*6A
$GPRMC,200116.00,A,3932.36554,N,11948.79735,W,0.158,,070819,,,D*68
$GPRMC,200117.00,A,3932.36544,N,11948.79733,W,0.327,,070819,,,D*64
$GPRMC,200118.00,A,3932.36532,N,11948.79728,W,0.027,,070819,,,D*63
$GPRMC,200119.00,A,3932.36527,N,11948.79730,W,0.008,,070819,,,D*62
$GPRMC,200120.00,A,3932.36522,N,11948.79736,W,0.020,,070819,,,D*61
$GPRMC,200121.00,A,3932.36522,N,11948.79745,W,0.095,,070819,,,D*6A
$GPRMC,200122.00,A,3932.36519,N,11948.79749,W,0.203,,070819,,,D*60
$GPRMC,200123.00,A,3932.36516,N,11948.79742,W,0.387,,070819,,,D*68
$GPRMC,200124.00,A,3932.36520,N,11948.79746,W,0.392,,070819,,,D*6A
$GPRMC,200125.00,A,3932.36521,N,11948.79767,W,0.570,315.53,070819,,,D*7C
$GPRMC,200126.00,A,3932.36521,N,11948.79765,W,0.154,,070819,,,D*60
$GPRMC,200127.00,A,3932.36522,N,11948.79773,W,0.054,,070819,,,D*64
$GPRMC,200128.00,A,3932.36528,N,11948.79792,W,0.513,,070819,,,D*68
$GPRMC,200129.00,A,3932.36546,N,11948.79768,W,1.459,15.09,070819,,,D*49
$GPRMC,200130.00,A,3932.36569,N,11948.79760,W,1.166,352.30,070819,,,D*77
$GPRMC,200131.00,A,3932.36601,N,11948.79739,W,1.381,21.87,070819,,,D*47
$GPRMC,200132.00,A,3932.36625,N,11948.79705,W,0.965,27.51,070819,,,D*41
$GPRMC,200133.00,A,3932.36644,N,11948.79681,W,0.878,37.79,070819,,,D*4C
$GPRMC,200134.00,A,3932.36661,N,11948.79632,W,1.583,65.95,070819,,,D*49
$GPRMC,200135.00,A,3932.36685,N,11948.79580,W,1.773,59.94,070819,,,D*4B
$GPRMC,200136.00,A,3932.36708,N,11948.79544,W,1.248,54.64,070819,,,D*4B
$GPRMC,200137.00,A,3932.36746,N,11948.79531,W,1.140,28.94,070819,,,D*4D
$GPRMC,200138.00,A,3932.36739,N,11948.79534,W,0.613,359.98,070819,,,D*76
$GPRMC,200139.00,A,3932.36727,N,11948.79549,W,0.047,,070819,,,D*65
$GPRMC,200140.00,A,3932.36716,N,11948.79548,W,0.475,273.11,070819,,,D*75
$GPRMC,200141.00,A,3932.36721,N,11948.79544,W,0.342,,070819,,,D*67
$GPRMC,200142.00,A,3932.36724,N,11948.79533,W,0.273,,070819,,,D*62
$GPRMC,200143.00,A,3932.36729,N,11948.79522,W,0.013,,070819,,,D*6A
$GPRMC,200144.00,A,3932.36732,N,11948.79517,W,0.062,,070819,,,D*67
$GPRMC,200145.00,A,3932.36735,N,11948.79519,W,0.137,,070819,,,D*6E
$GPRMC,200146.00,A,3932.36738,N,11948.79518,W,0.069,,070819,,,D*6B
$GPRMC,200147.00,A,3932.36737,N,11948.79515,W,0.216,,070819,,,D*62
$GPRMC,200148.00,A,3932.36743,N,11948.79511,W,0.546,,070819,,,D*68
$GPRMC,200149.00,A,3932.36747,N,11948.79517,W,0.111,,070819,,,D*6D
$GPRMC,200150.00,A,3932.36744,N,11948.79523,W,0.136,,070819,,,D*64
$GPRMC,200151.00,A,3932.36743,N,11948.79521,W,0.114,,070819,,,D*60
$GPRMC,200152.00,A,3932.36742,N,11948.79528,W,0.006,,070819,,,D*69
$GPRMC,200153.00,A,3932.36742,N,11948.79537,W,0.132,,070819,,,D*60
$GPRMC,200154.00,A,3932.36743,N,11948.79546,W,0.049,,070819,,,D*6D
$GPRMC,200155.00,A,3932.36743,N,11948.79549,W,0.161,,070819,,,D*68
$GPRMC,200156.00,A,3932.36745,N,11948.79551,W,0.268,,070819,,,D*6E
$GPRMC,200157.00,A,3932.36748,N,11948.79558,W,0.120,,070819,,,D*64
$GPRMC,200158.00,A,3932.36741,N,11948.79564,W,0.077,,070819,,,D*6E
$GPRMC,200159.00,A,3932.36735,N,11948.79578,W,0.110,,070819,,,D*61
$GPRMC,200200.00,A,3932.36726,N,11948.79586,W,0.285,,070819,,,D*62
$GPRMC,200201.00,A,3932.36717,N,11948.79592,W,0.247,,070819,,,D*6A
$GPRMC,200202.00,A,3932.36716,N,11948.79599,W,0.267,,070819,,,D*61
$GPRMC,200203.00,A,3932.36715,N,11948.79605,W,0.049,,070819,,,D*6B
$GPRMC,200204.00,A,3932.36706,N,11948.79618,W,0.106,,070819,,,D*68
$GPRMC,200205.00,A,3932.36694,N,11948.79618,W,0.287,,070819,,,D*69
$GPRMC,200206.00,A,3932.36687,N,11948.79616,W,0.020,,070819,,,D*69
$GPRMC,200207.00,A,3932.36682,N,11948.79617,W,0.011,,070819,,,D*6E
$GPRMC,200208.00,A,3932.36677,N,11948.79615,W,0.062,,070819,,,D*6D
$GPRMC,200209.00,A,3932.36670,N,11948.79613,W,0.137,,070819,,,D*6C
$GPRMC,200210.00,A,3932.36665,N,11948.79613,W,0.080,,070819,,,D*6D
$GPRMC,200211.00,A,3932.36656,N,11948.79630,W,0.086,,070819,,,D*6B
$GPRMC,200212.00,A,3932.36650,N,11948.79632,W,0.071,,070819,,,D*64
$GPRMC,200213.00,A,3932.36641,N,11948.79638,W,0.115,,070819,,,D*6C
$GPRMC,200214.00,A,3932.36632,N,11948.79656,W,0.142,,070819,,,D*65
$GPRMC,200215.00,A,3932.36623,N,11948.79669,W,0.487,252.95,070819,,,D*73
$GPRMC,200216.00,A,3932.36607,N,11948.79709,W,1.408,244.40,070819,,,D*78
$GPRMC,200217.00,A,3932.36562,N,11948.79756,W,2.509,224.92,070819,,,D*79
$GPRMC,200218.00,A,3932.36516,N,11948.79796,W,1.788,222.17,070819,,,D*7A
$GPRMC,200219.00,A,3932.36485,N,11948.79834,W,1.660,229.67,070819,,,D*7C
$GPRMC,200220.00,A,3932.36460,N,11948.79878,W,2.128,232.51,070819,,,D*72
$GPRMC,200221.00,A,3932.36433,N,11948.79933,W,2.276,248.59,070819,,,D*76
$GPRMC,200222.00,A,3932.36410,N,11948.80005,W,2.469,252.01,070819,,,D*70
$GPRMC,200223.00,A,3932.36381,N,11948.80071,W,2.042,244.25,070819,,,D*71
$GPRMC,200224.00,A,3932.36349,N,11948.80135,W,2.260,248.74,070819,,,D*79
$GPRMC,200225.00,A,3932.36332,N,11948.80211,W,2.191,249.45,070819,,,D*7F
$GPRMC,200226.00,A,3932.36314,N,11948.80288,W,2.308,251.93,070819,,,D*78
$GPRMC,200227.00,A,3932.36311,N,11948.80389,W,3.442,261.85,070819,,,D*70
$GPRMC,200228.00,A,3932.36282,N,11948.80496,W,2.588,256.18,070819,,,D*7B
$GPRMC,200229.00,A,3932.36268,N,11948.80575,W,1.996,254.32,070819,,,D*78
$GPRMC,200230.00,A,3932.36251,N,11948.80646,W,2.108,254.15,070819,,,D*70
$GPRMC,200231.00,A,3932.36231,N,11948.80722,W,2.220,252.33,070819,,,D*7F
$GPRMC,200232.00,A,3932.36209,N,11948.80814,W,2.357,254.96,070819,,,D*75
$GPRMC,200233.00,A,3932.36187,N,11948.80913,W,2.729,255.17,070819,,,D*72
$GPRMC,200234.00,A,3932.36170,N,11948.81013,W,2.656,256.85,070819,,,D*74
$GPRMC,200235.00,A,3932.36152,N,11948.81103,W,2.515,254.91,070819,,,D*76
$GPRMC,200236.00,A,3932.36134,N,11948.81183,W,2.017,255.05,070819,,,D*76
$GPRMC,200237.00,A,3932.36119,N,11948.81272,W,2.146,258.20,070819,,,D*7A
$GPRMC,200238.00,A,3932.36110,N,11948.81370,W,2.906,262.78,070819,,,D*77
$GPRMC,200239.00,A,3932.36092,N,11948.81463,W,2.463,259.37,070819,,,D*75
$GPRMC,200240.00,A,3932.36067,N,11948.81547,W,2.442,257.79,070819,,,D*71
$GPRMC,200241.00,A,3932.36044,N,11948.81607,W,1.254,255.43,070819,,,D*7F
$GPRMC,200242.00,A,3932.36037,N,11948.81640,W,0.569,,070819,,,D*68
$GPRMC,200243.00,A,3932.36031,N,11948.81693,W,1.046,,070819,,,D*68
$GPRMC,200244.00,A,3932.36042,N,11948.81737,W,1.150,,070819,,,D*62
$GPRMC,200245.00,A,3932.36026,N,11948.81766,W,0.416,,070819,,,D*63
$GPRMC,200246.00,A,3932.36010,N,11948.81791,W,0.522,,070819,,,A*6E
$GPRMC,200247.00,A,3932.35969,N,11948.81872,W,2.435,237.39,070819,,,A*7E
$GPRMC,200248.00,A,3932.35957,N,11948.81913,W,0.668,,070819,,,A*60
$GPRMC,200249.00,A,3932.35951,N,11948.81967,W,0.860,240.34,070819,,,A*7D
$GPRMC,200250.00,A,3932.35945,N,11948.82004,W,0.809,250.08,070819,,,A*7E
$GPRMC,200251.00,A,3932.35935,N,11948.82053,W,0.888,262.17,070819,,,A*7C
$GPRMC,200252.00,A,3932.35918,N,11948.82059,W,0.734,259.62,070819,,,A*78
$GPRMC,200253.00,A,3932.35898,N,11948.82067,W,1.143,240.83,070819,,,A*7D
$GPRMC,200254.00,A,3932.35893,N,11948