File Created
070819,,,D*7A
$GPRMC,200510.00,A,3932.38121,N,11948.91275,W,3.004,345.44,070819,,,D*72
$GPRMC,200511.00,A,3932.38197,N,11948.91305,W,3.292,341.55,070819,,,D*71
$GPRMC,200512.00,A,3932.38268,N,11948.91339,W,2.730,341.63,070819,,,D*77
$GPRMC,200513.00,A,3932.38344,N,11948.91355,W,2.733,345.54,070819,,,D*70
$GPRMC,200514.00,A,3932.38408,N,11948.91365,W,2.512,348.31,070819,,,D*74
$GPRMC,200515.00,A,3932.38458,N,11948.91422,W,3.022,340.96,070819,,,D*76
$GPRMC,200516.00,A,3932.38524,N,11948.91491,W,2.887,333.51,070819,,,D*7E
$GPRMC,200517.00,A,3932.38603,N,11948.91507,W,3.097,337.30,070819,,,D*7C
$GPRMC,200518.00,A,3932.38678,N,11948.91518,W,3.058,341.45,070819,,,D*71
$GPRMC,200519.00,A,3932.38743,N,11948.91548,W,3.152,342.11,070819,,,D*75
$GPRMC,200520.00,A,3932.38809,N,11948.91598,W,2.762,342.09,070819,,,D*7E
$GPRMC,200521.00,A,3932.38846,N,11948.91678,W,2.693,340.37,070819,,,D*79
$GPRMC,200522.00,A,3932.38896,N,11948.91692,W,2.518,338.95,070819,,,D*74
$GPRMC,200523.00,A,3932.38944,N,11948.91704,W,2.450,340.21,070819,,,D*78
$GPRMC,200524.00,A,3932.39012,N,11948.91725,W,2.733,344.80,070819,,,D*7E
$GPRMC,200525.00,A,3932.39070,N,11948.91730,W,2.654,348.79,070819,,,D*75
$GPRMC,200526.00,A,3932.39134,N,11948.91714,W,2.911,347.30,070819,,,D*7D
$GPRMC,200527.00,A,3932.39189,N,11948.91738,W,2.947,342.68,070819,,,D*7F
$GPRMC,200528.00,A,3932.39234,N,11948.91757,W,2.744,345.39,070819,,,D*72
$GPRMC,200529.00,A,3932.39290,N,11948.91820,W,2.758,338.41,070819,,,D*7A
$GPRMC,200530.00,A,3932.39332,N,11948.91825,W,2.329,342.92,070819,,,D*7F
$GPRMC,200531.00,A,3932.39382,N,11948.91807,W,2.472,346.95,070819,,,D*7F
$GPRMC,200532.00,A,3932.39432,N,11948.91798,W,2.405,340.55,070819,,,D*73
$GPRMC,200533.00,A,3932.39501,N,11948.91805,W,2.687,341.57,070819,,,D*73
$GPRMC,200534.00,A,3932.39551,N,11948.91784,W,2.117,341.62,070819,,,D*7F
$GPRMC,200535.00,A,3932.39593,N,11948.91774,W,1.738,346.03,070819,,,D*77
$GPRMC,200536.00,A,3932.39654,N,11948.91759,W,2.168,349.43,070819,,,D*78
$GPRMC,200537.00,A,3932.39702,N,11948.91721,W,2.472,350.15,070819,,,D*71
$GPRMC,200538.00,A,3932.39811,N,11948.91766,W,2.658,359.01,070819,,,D*76
$GPRMC,200539.00,A,3932.39887,N,11948.91760,W,2.496,0.46,070819,,,D*72
$GPRMC,200540.00,A,3932.39945,N,11948.91754,W,1.471,0.76,070819,,,D*7D
$GPRMC,200541.00,A,3932.39993,N,11948.91755,W,1.504,8.64,070819,,,D*7E
$GPRMC,200542.00,A,3932.40060,N,11948.91768,W,2.319,356.66,070819,,,D*7B
$GPRMC,200543.00,A,3932.40125,N,11948.91762,W,2.325,358.06,070819,,,D*77
$GPRMC,200544.00,A,3932.40206,N,11948.91791,W,2.418,355.88,070819,,,D*7C
$GPRMC,200545.00,A,3932.40313,N,11948.91803,W,3.347,8.85,070819,,,D*76
$GPRMC,200546.00,A,3932.40404,N,11948.91794,W,3.058,7.80,070819,,,D*72
$GPRMC,200547.00,A,3932.40494,N,11948.91811,W,2.559,10.04,070819,,,D*47
$GPRMC,200548.00,A,3932.40575,N,11948.91769,W,2.783,29.46,070819,,,D*4F
$GPRMC,200549.00,A,3932.40636,N,11948.91712,W,2.532,35.04,070819,,,D*45
$GPRMC,200550.00,A,3932.40697,N,11948.91670,W,2.469,45.31,070819,,,D*4D
$GPRMC,200551.00,A,3932.40768,N,11948.91648,W,2.491,54.94,070819,,,D*4E
$GPRMC,200552.00,A,3932.40831,N,11948.91596,W,2.937,63.21,070819,,,D*45
$GPRMC,200553.00,A,3932.40872,N,11948.91495,W,3.453,70.23,070819,,,D*4F
$GPRMC,200554.00,A,3932.40909,N,11948.91392,W,3.134,72.98,070819,,,D*43
$GPRMC,200555.00,A,3932.40941,N,11948.91301,W,2.713,73.18,070819,,,D*4F
$GPRMC,200556.00,A,3932.40971,N,11948.91230,W,2.071,74.69,070819,,,D*4E
$GPRMC,200557.00,A,3932.40995,N,11948.91161,W,2.234,74.80,070819,,,D*46
$GPRMC,200558.00,A,3932.41012,N,11948.91089,W,2.123,80.75,070819,,,D*4D
$GPRMC,200559.00,A,3932.41018,N,11948.90995,W,2.661,85.99,070819,,,D*45
$GPRMC,200600.00,A,3932.41027,N,11948.90892,W,2.804,87.80,070819,,,D*47
$GPRMC,200601.00,A,3932.41034,N,11948.90785,W,3.361,91.02,070819,,,D*49
$GPRMC,200602.00,A,3932.41038,N,11948.90696,W,2.716,92.82,070819,,,D*4B
$GPRMC,200603.00,A,3932.41057,N,11948.90618,W,2.415,87.41,070819,,,D*4E
$GPRMC,200604.00,A,3932.41079,N,11948.90553,W,2.005,81.98,070819,,,D*4E
$GPRMC,200605.00,A,3932.41106,N,11948.90478,W,2.307,78.60,070819,,,D*4E
$GPRMC,200606.00,A,3932.41126,N,11948.90397,W,2.405,78.58,070819,,,D*47
$GPRMC,200607.00,A,3932.41152,N,11948.90312,W,2.316,75.04,070819,,,D*49
$GPRMC,200608.00,A,3932.41178,N,11948.90221,W,2.602,74.36,070819,,,D*4F
$GPRMC,200609.00,A,3932.41200,N,11948.90120,W,2.929,75.06,070819,,,D*44
$GPRMC,200610.00,A,3932.41222,N,11948.90022,W,2.373,73.40,070819,,,D*4E
$GPRMC,200611.00,A,3932.41249,N,11948.89947,W,2.208,68.67,070819,,,D*42
$GPRMC,200612.00,A,3932.41267,N,11948.89867,W,1.999,65.56,070819,,,D*41
$GPRMC,200613.00,A,3932.41314,N,11948.89787,W,2.588,54.69,070819,,,D*45
$GPRMC,200614.00,A,3932.41362,N,11948.89693,W,2.965,54.08,070819,,,D*4F
$GPRMC,200615.00,A,3932.41393,N,11948.89594,W,2.878,62.34,070819,,,D*43
$GPRMC,200616.00,A,3932.41436,N,11948.89479,W,3.562,63.90,070819,,,D*42
$GPRMC,200617.00,A,3932.41462,N,11948.89373,W,2.787,67.42,070819,,,D*4C
$GPRMC,200618.00,A,3932.41499,N,11948.89286,W,2.459,67.47,070819,,,D*49
$GPRMC,200619.00,A,3932.41510,N,11948.89207,W,2.088,,070819,,,D*65
$GPRMC,200620.00,A,3932.41528,N,11948.89112,W,2.652,75.28,070819,,,D*44
$GPRMC,200621.00,A,3932.41556,N,11948.89009,W,2.870,81.07,070819,,,D*4F
$GPRMC,200622.00,A,3932.41522,N,11948.88915,W,2.420,94.10,070819,,,D*41
$GPRMC,200623.00,A,3932.41530,N,11948.88818,W,2.755,98.87,070819,,,A*49
$GPRMC,200624.00,A,3932.41551,N,11948.88712,W,2.923,98.17,070819,,,A*4A
$GPRMC,200625.00,A,3932.41578,N,11948.88635,W,2.087,98.17,070819,,,A*43
$GPRMC,200626.00,A,3932.41609,N,11948.88566,W,1.816,94.23,070819,,,A*48
$GPRMC,200627.00,A,3932.41637,N,11948.88500,W,1.711,87.69,070819,,,A*40
$GPRMC,200628.00,A,3932.41681,N,11948.88418,W,2.534,84.77,070819,,,A*40
$GPRMC,200629.00,A,3932.41691,N,11948.88321,W,2.828,90.59,070819,,,A*44
$GPRMC,200630.00,A,3932.41744,N,11948.88187,W,3.800,85.14,070819,,,A*4D
$GPRMC,200631.00,A,3932.41792,N,11948.88046,W,3.888,83.12,070819,,,A*4B
$GPRMC,200632.00,A,3932.41838,N,11948.87937,W,2.911,88.42,070819,,,A*49
$GPRMC,200633.00,A,3932.41858,N,11948.87852,W,2.166,90.01,070819,,,A*4A
$GPRMC,200634.00,A,3932.41903,N,11948.87781,W,2.019,89.36,070819,,,A*46
$GPRMC,200635.00,A,3932.41925,N,11948.87697,W,2.350,89.02,070819,,,A*4C
$GPRMC,200636.00,A,3932.41931,N,11948.87604,W,2.716,97.21,070819,,,A*48
$GPRMC,200637.00,A,3932.41941,N,11948.87497,W,3.115,98.13,070819,,,A*4C
$GPRMC,200638.00,A,3932.41930,N,11948.87386,W,3.284,102.23,070819,,,A*78
$GPRMC,200639.00,A,3932.41935,N,11948.87286,W,2.927,104.28,070819,,,A*73
$GPRMC,200640.00,A,3932.41974,N,11948.87217,W,2.212,103.57,070819,,,A*72
$GPRMC,200641.00,A,3932.42030,N,11948.87154,W,1.951,87.16,070819,,,A*4A
$GPRMC,200642.00,A,3932.42044,N,11948.87097,W,1.767,88.62,070819,,,A*43
$GPRMC,200643.00,A,3932.42054,N,11948.87009,W,2.377,88.92,070819,,,A*4D
$GPRMC,200644.00,A,3932.42052,N,11948.86901,W,2.653,90.65,070819,,,A*4E
$GPRMC,200645.00,A,3932.42041,N,11948.86805,W,2.550,88.10,070819,,,A*43
$GPRMC,200646.00,A,3932.42063,N,11948.86692,W,2.881,81.84,070819,,,A*45
$GPRMC,200647.00,A,3932.42074,N,11948.86581,W,3.017,78.29,070819,,,A*44
$GPRMC,200648.00,A,3932.42094,N,11948.86489,W,2.402,73.22,070819,,,A*4D
$GPRMC,200649.00,A,3932.42108,N,11948.86421,W,1.761,71.41,070819,,,A*48
$GPRMC,200650.00,A,3932.42117,N,11948.86334,W,2.202,82.17,070819,,,A*41
$GPRMC,200651.00,A,3932.42092,N,11948.86258,W,1.736,88.47,070819,,,A*49
$GPRMC,200652.00,A,3932.42026,N,11948.86211,W,1.630,111.80,070819,,,A*75
$GPRMC,200653.00,A,3932.41937,N,11948.86204,W,2.639,142.91,070819,,,A*76
$GPRMC,200654.00,A,3932.41853,N,11948.86174,W,2.852,158.06,070819,,,A*70
$GPRMC,200655.00,A,3932.41761,N,11948.86148,W,3.427,166.60,070819,,,A*72
$GPRMC,200656.00,A,3932.41649,N,11948.86122,W,3.601,168.59,070819,,,A*74
$GPRMC,200657.00,A,3932.41549,N,11948.86089,W,3.434,169.90,070819,,,D*73
$GPRMC,200658.00,A,3932.41464,N,11948.86082,W,2.617,170.83,070819,,,D*71
$GPRMC,200659.00,A,3932.41392,N,11948.86072,W,2.224,172.23,070819,,,D*7D
$GPRMC,200700.00,A,3932.41321,N,11948.86042,W,2.320,163.81,070819,,,D*76
$GPRMC,200701.00,A,3932.41255,N,11948.86011,W,2.265,157.60,070819,,,D*7B
$GPRMC,200702.00,A,3932.41182,N,11948.85995,W,2.516,160.24,070819,,,D*70
$GPRMC,200703.00,A,3932.41098,N,11948.85983,W,2.722,162.37,070819,,,D*79
$GPRMC,200704.00,A,3932.41012,N,11948.85961,W,3.014,163.60,070819,,,D*70
$GPRMC,200705.00,A,3932.40925,N,11948.85947,W,2.723,164.76,070819,,,D*7B
$GPRMC,200706.00,A,3932.40838,N,11948.85922,W,2.812,159.96,070819,,,D*7B
$GPRMC,200707.00,A,3932.40745,N,11948.85911,W,2.699,158.74,070819,,,D*7F
$GPRMC,200708.00,A,3932.40676,N,11948.85914,W,1.786,160.53,070819,,,D*76
$GPRMC,200709.00,A,3932.40619,N,11948.85879,W,1.866,149.43,070819,,,D*7F
$GPRMC,200710.00,A,3932.40545,N,11948.85857,W,2.208,153.24,070819,,,D*7A
$GPRMC,200711.00,A,3932.40469,N,11948.85799,W,2.624,149.17,070819,,,D*78
$GPRMC,200712.00,A,3932.40399,N,11948.85711,W,2.736,138.08,070819,,,D*79
$GPRMC,200713.00,A,3932.40344,N,11948.85615,W,3.087,125.22,070819,,,D*75
$GPRMC,200714.00,A,3932.40316,N,11948.85512,W,2.563,116.53,070819,,,D*79
$GPRMC,200715.00,A,3932.40304,N,11948.85431,W,2.187,107.37,070819,,,D*77
$GPRMC,200716.00,A,3932.40293,N,11948.85347,W,1.899,106.17,070819,,,D*7B
$GPRMC,200717.00,A,3932.40269,N,11948.85269,W,2.199,109.36,070819,,,D*74
$GPRMC,200718.00,A,3932.40243,N,11948.85184,W,2.270,108.56,070819,,,D*70
$GPRMC,200719.00,A,3932.40224,N,11948.85077,W,2.679,103.85,070819,,,D*75
$GPRMC,200720.00,A,3932.40206,N,11948.84963,W,2.886,103.48,070819,,,D*7D
$GPRMC,200721.00,A,3932.40190,N,11948.84852,W,2.717,104.16,070819,,,D*78
$GPRMC,200722.00,A,3932.40166,N,11948.84753,W,2.513,110.12,070819,,,D*7B
$GPRMC,200723.00,A,3932.40126,N,11948.84665,W,2.475,118.05,070819,,,D*75
$GPRMC,200724.00,A,3932.40082,N,11948.84580,W,2.695,127.35,070819,,,D*76
$GPRMC,200725.00,A,3932.40019,N,11948.84513,W,2.863,139.59,070819,,,D*7D