File Created
.82119,W,1.454,246.08,070819,,,A*7F
$GPRMC,200255.00,A,3932.35876,N,11948.82158,W,2.031,246.59,070819,,,A*70
$GPRMC,200256.00,A,3932.35859,N,11948.82220,W,2.202,251.92,070819,,,A*71
$GPRMC,200257.00,A,3932.35842,N,11948.82286,W,1.836,252.34,070819,,,D*72
$GPRMC,200258.00,A,3932.35832,N,11948.82330,W,1.869,258.07,070819,,,D*76
$GPRMC,200259.00,A,3932.35811,N,11948.82373,W,1.098,256.55,070819,,,D*7E
$GPRMC,200300.00,A,3932.35807,N,11948.82401,W,0.910,246.27,070819,,,D*7A
$GPRMC,200301.00,A,3932.35782,N,11948.82447,W,1.411,243.53,070819,,,D*70
$GPRMC,200302.00,A,3932.35764,N,11948.82484,W,1.226,241.38,070819,,,D*79
$GPRMC,200303.00,A,3932.35744,N,11948.82506,W,1.208,249.64,070819,,,D*7C
$GPRMC,200304.00,A,3932.35748,N,11948.82578,W,1.663,258.93,070819,,,D*7F
$GPRMC,200305.00,A,3932.35739,N,11948.82620,W,1.167,255.74,070819,,,D*71
$GPRMC,200306.00,A,3932.35725,N,11948.82642,W,0.794,,070819,,,D*6F
$GPRMC,200307.00,A,3932.35716,N,11948.82690,W,1.514,251.58,070819,,,D*7F
$GPRMC,200308.00,A,3932.35693,N,11948.82742,W,1.336,250.56,070819,,,D*7B
$GPRMC,200309.00,A,3932.35673,N,11948.82778,W,1.038,251.36,070819,,,D*77
$GPRMC,200310.00,A,3932.35645,N,11948.82826,W,2.096,242.70,070819,,,D*79
$GPRMC,200311.00,A,3932.35624,N,11948.82902,W,2.136,247.97,070819,,,D*7F
$GPRMC,200312.00,A,3932.35617,N,11948.82984,W,1.965,250.52,070819,,,D*70
$GPRMC,200313.00,A,3932.35623,N,11948.83131,W,2.542,256.95,070819,,,D*76
$GPRMC,200314.00,A,3932.35611,N,11948.83183,W,1.164,256.31,070819,,,D*74
$GPRMC,200315.00,A,3932.35599,N,11948.83260,W,2.151,255.39,070819,,,D*76
$GPRMC,200316.00,A,3932.35586,N,11948.83352,W,2.567,253.27,070819,,,D*73
$GPRMC,200317.00,A,3932.35581,N,11948.83476,W,2.366,254.47,070819,,,D*72
$GPRMC,200318.00,A,3932.35554,N,11948.83561,W,2.561,255.33,070819,,,D*71
$GPRMC,200319.00,A,3932.35557,N,11948.83701,W,3.178,257.67,070819,,,D*79
$GPRMC,200320.00,A,3932.35557,N,11948.83838,W,2.844,260.56,070819,,,D*77
$GPRMC,200321.00,A,3932.35547,N,11948.83975,W,2.943,262.85,070819,,,D*75
$GPRMC,200322.00,A,3932.35539,N,11948.84116,W,2.862,260.62,070819,,,D*7C
$GPRMC,200323.00,A,3932.35534,N,11948.84226,W,2.374,260.37,070819,,,D*7C
$GPRMC,200324.00,A,3932.35520,N,11948.84336,W,2.737,260.73,070819,,,D*7D
$GPRMC,200325.00,A,3932.35504,N,11948.84445,W,3.015,260.86,070819,,,D*75
$GPRMC,200326.00,A,3932.35484,N,11948.84550,W,2.793,256.67,070819,,,D*78
$GPRMC,200327.00,A,3932.35475,N,11948.84638,W,2.848,258.27,070819,,,D*79
$GPRMC,200328.00,A,3932.35467,N,11948.84759,W,3.014,261.67,070819,,,D*7D
$GPRMC,200329.00,A,3932.35449,N,11948.84865,W,2.808,258.65,070819,,,D*7C
$GPRMC,200330.00,A,3932.35416,N,11948.84957,W,2.636,252.96,070819,,,D*7B
$GPRMC,200331.00,A,3932.35377,N,11948.85040,W,2.561,247.02,070819,,,D*7C
$GPRMC,200332.00,A,3932.35335,N,11948.85129,W,2.699,243.80,070819,,,D*7D
$GPRMC,200333.00,A,3932.35326,N,11948.85255,W,3.027,252.48,070819,,,D*70
$GPRMC,200334.00,A,3932.35315,N,11948.85377,W,2.774,251.96,070819,,,D*76
$GPRMC,200335.00,A,3932.35296,N,11948.85491,W,3.074,254.45,070819,,,D*7F
$GPRMC,200336.00,A,3932.35286,N,11948.85612,W,3.004,257.70,070819,,,D*76
$GPRMC,200337.00,A,3932.35277,N,11948.85720,W,2.726,258.87,070819,,,D*78
$GPRMC,200338.00,A,3932.35264,N,11948.85812,W,2.444,256.47,070819,,,D*7E
$GPRMC,200339.00,A,3932.35275,N,11948.85914,W,2.561,258.66,070819,,,D*73
$GPRMC,200340.00,A,3932.35258,N,11948.86014,W,2.635,258.57,070819,,,D*78
$GPRMC,200341.00,A,3932.35234,N,11948.86118,W,2.819,254.90,070819,,,D*79
$GPRMC,200342.00,A,3932.35217,N,11948.86219,W,2.988,254.79,070819,,,D*77
$GPRMC,200343.00,A,3932.35199,N,11948.86331,W,2.869,255.43,070819,,,D*7E
$GPRMC,200344.00,A,3932.35177,N,11948.86442,W,3.176,253.30,070819,,,D*7E
$GPRMC,200345.00,A,3932.35169,N,11948.86556,W,2.803,258.40,070819,,,D*72
$GPRMC,200346.00,A,3932.35159,N,11948.86654,W,2.510,257.91,070819,,,D*7F
$GPRMC,200347.00,A,3932.35139,N,11948.86746,W,2.711,255.01,070819,,,D*72
$GPRMC,200348.00,A,3932.35119,N,11948.86838,W,2.639,254.66,070819,,,D*72
$GPRMC,200349.00,A,3932.35098,N,11948.86932,W,2.811,254.35,070819,,,D*72
$GPRMC,200350.00,A,3932.35085,N,11948.87026,W,2.907,259.26,070819,,,D*72
$GPRMC,200351.00,A,3932.35078,N,11948.87124,W,2.604,260.93,070819,,,D*7A
$GPRMC,200352.00,A,3932.35052,N,11948.87221,W,2.892,255.42,070819,,,D*7C
$GPRMC,200353.00,A,3932.35031,N,11948.87314,W,2.581,254.06,070819,,,D*71
$GPRMC,200354.00,A,3932.35020,N,11948.87405,W,2.509,258.50,070819,,,D*7E
$GPRMC,200355.00,A,3932.34999,N,11948.87496,W,2.616,253.36,070819,,,D*79
$GPRMC,200356.00,A,3932.34993,N,11948.87585,W,2.424,264.61,070819,,,D*76
$GPRMC,200357.00,A,3932.34991,N,11948.87673,W,2.378,261.80,070819,,,D*7B
$GPRMC,200358.00,A,3932.34976,N,11948.87769,W,2.625,259.92,070819,,,D*72
$GPRMC,200359.00,A,3932.34964,N,11948.87865,W,2.680,262.57,070819,,,D*7D
$GPRMC,200400.00,A,3932.34950,N,11948.87952,W,2.358,261.89,070819,,,D*74
$GPRMC,200401.00,A,3932.34937,N,11948.88030,W,2.044,263.39,070819,,,D*71
$GPRMC,200402.00,A,3932.34954,N,11948.88083,W,1.299,269.04,070819,,,D*7A
$GPRMC,200403.00,A,3932.34982,N,11948.88127,W,1.635,297.16,070819,,,D*7F
$GPRMC,200404.00,A,3932.35021,N,11948.88140,W,1.426,318.24,070819,,,D*7F
$GPRMC,200405.00,A,3932.35064,N,11948.88153,W,1.630,335.57,070819,,,D*73
$GPRMC,200406.00,A,3932.35119,N,11948.88181,W,1.958,339.25,070819,,,D*7C
$GPRMC,200407.00,A,3932.35183,N,11948.88217,W,2.579,341.02,070819,,,D*74
$GPRMC,200408.00,A,3932.35241,N,11948.88240,W,2.118,341.94,070819,,,D*78
$GPRMC,200409.00,A,3932.35305,N,11948.88274,W,2.312,341.48,070819,,,D*76
$GPRMC,200410.00,A,3932.35366,N,11948.88306,W,2.246,340.58,070819,,,D*7F
$GPRMC,200411.00,A,3932.35422,N,11948.88333,W,2.002,338.93,070819,,,A*70
$GPRMC,200412.00,A,3932.35456,N,11948.88356,W,1.210,,070819,,,A*6D
$GPRMC,200413.00,A,3932.35508,N,11948.88376,W,2.098,342.27,070819,,,A*7B
$GPRMC,200414.00,A,3932.35580,N,11948.88399,W,2.562,345.06,070819,,,A*79
$GPRMC,200415.00,A,3932.35615,N,11948.88477,W,2.811,331.80,070819,,,A*74
$GPRMC,200416.00,A,3932.35655,N,11948.88503,W,2.058,340.81,070819,,,A*73
$GPRMC,200417.00,A,3932.35712,N,11948.88541,W,2.401,332.94,070819,,,A*7F
$GPRMC,200418.00,A,3932.35788,N,11948.88570,W,2.640,338.55,070819,,,A*71
$GPRMC,200419.00,A,3932.35853,N,11948.88588,W,2.370,342.80,070819,,,A*7D
$GPRMC,200420.00,A,3932.35929,N,11948.88608,W,2.697,342.50,070819,,,A*71
$GPRMC,200421.00,A,3932.36006,N,11948.88643,W,2.229,338.37,070819,,,D*70
$GPRMC,200422.00,A,3932.36089,N,11948.88659,W,2.673,347.06,070819,,,D*7E
$GPRMC,200423.00,A,3932.36164,N,11948.88669,W,2.514,345.69,070819,,,D*77
$GPRMC,200424.00,A,3932.36226,N,11948.88694,W,1.914,345.46,070819,,,D*75
$GPRMC,200425.00,A,3932.36316,N,11948.88700,W,2.992,345.72,070819,,,D*70
$GPRMC,200426.00,A,3932.36397,N,11948.88721,W,2.482,347.57,070819,,,D*70
$GPRMC,200427.00,A,3932.36504,N,11948.88716,W,2.462,347.64,070819,,,D*77
$GPRMC,200428.00,A,3932.36578,N,11948.88720,W,2.451,344.75,070819,,,D*75
$GPRMC,200429.00,A,3932.36653,N,11948.88735,W,2.663,343.61,070819,,,D*7B
$GPRMC,200430.00,A,3932.36731,N,11948.88762,W,2.743,342.42,070819,,,D*77
$GPRMC,200431.00,A,3932.36841,N,11948.88787,W,2.957,345.78,070819,,,D*70
$GPRMC,200432.00,A,3932.36927,N,11948.88806,W,2.897,346.98,070819,,,D*74
$GPRMC,200433.00,A,3932.37006,N,11948.88832,W,2.764,346.35,070819,,,D*7D
$GPRMC,200434.00,A,3932.37087,N,11948.88864,W,2.856,343.31,070819,,,D*7F
$GPRMC,200435.00,A,3932.37153,N,11948.88902,W,2.297,337.46,070819,,,D*73
$GPRMC,200436.00,A,3932.37213,N,11948.88954,W,2.302,326.07,070819,,,D*7C
$GPRMC,200437.00,A,3932.37238,N,11948.89029,W,2.343,292.07,070819,,,D*7D
$GPRMC,200438.00,A,3932.37253,N,11948.89099,W,2.009,279.07,070819,,,D*7C
$GPRMC,200439.00,A,3932.37248,N,11948.89177,W,2.349,263.89,070819,,,A*79
$GPRMC,200440.00,A,3932.37255,N,11948.89267,W,2.306,263.40,070819,,,A*77
$GPRMC,200441.00,A,3932.37266,N,11948.89367,W,2.490,258.26,070819,,,A*77
$GPRMC,200442.00,A,3932.37257,N,11948.89467,W,2.858,257.36,070819,,,A*77
$GPRMC,200443.00,A,3932.37245,N,11948.89578,W,2.905,258.11,070819,,,A*79
$GPRMC,200444.00,A,3932.37230,N,11948.89682,W,2.873,256.06,070819,,,A*72
$GPRMC,200445.00,A,3932.37208,N,11948.89792,W,3.291,254.32,070819,,,A*7A
$GPRMC,200446.00,A,3932.37190,N,11948.89900,W,3.072,255.50,070819,,,A*74
$GPRMC,200447.00,A,3932.37172,N,11948.90009,W,3.114,258.08,070819,,,D*75
$GPRMC,200448.00,A,3932.37158,N,11948.90102,W,2.486,258.22,070819,,,D*7F
$GPRMC,200449.00,A,3932.37139,N,11948.90191,W,2.603,257.66,070819,,,D*73
$GPRMC,200450.00,A,3932.37121,N,11948.90285,W,2.653,257.85,070819,,,D*7C
$GPRMC,200451.00,A,3932.37113,N,11948.90382,W,2.694,261.84,070819,,,D*75
$GPRMC,200452.00,A,3932.37099,N,11948.90490,W,3.030,258.40,070819,,,D*7A
$GPRMC,200453.00,A,3932.37087,N,11948.90594,W,3.010,261.13,070819,,,D*7F
$GPRMC,200454.00,A,3932.37081,N,11948.90701,W,3.058,265.79,070819,,,D*74
$GPRMC,200455.00,A,3932.37086,N,11948.90802,W,2.646,271.83,070819,,,D*76
$GPRMC,200456.00,A,3932.37117,N,11948.90879,W,2.132,285.23,070819,,,D*75
$GPRMC,200457.00,A,3932.37165,N,11948.90921,W,2.305,305.65,070819,,,D*70
$GPRMC,200458.00,A,3932.37234,N,11948.90953,W,2.680,328.38,070819,,,D*72
$GPRMC,200459.00,A,3932.37301,N,11948.90983,W,2.508,334.40,070819,,,D*78
$GPRMC,200500.00,A,3932.37377,N,11948.91004,W,2.708,340.28,070819,,,D*7C
$GPRMC,200501.00,A,3932.37449,N,11948.91042,W,3.033,343.72,070819,,,D*77
$GPRMC,200502.00,A,3932.37543,N,11948.91065,W,3.222,345.89,070819,,,D*7A
$GPRMC,200503.00,A,3932.37626,N,11948.91087,W,2.756,344.35,070819,,,D*76
$GPRMC,200504.00,A,3932.37703,N,11948.91107,W,2.488,348.04,070819,,,D*70
$GPRMC,200505.00,A,3932.37771,N,11948.91130,W,2.219,353.12,070819,,,D*73
$GPRMC,200506.00,A,3932.37822,N,11948.91161,W,2.125,348.60,070819,,,D*7E
$GPRMC,200507.00,A,3932.37888,N,11948.91181,W,2.656,347.32,070819,,,D*7A
$GPRMC,200508.00,A,3932.37959,N,11948.91209,W,2.763,346.16,070819,,,D*7B
$GPRMC,200509.00,A,3932.38035,N,11948.91241,W,2.925,344.18,